{
  "prefectures": [
    {
      "code": "01",
      "name": "北海道",
      "region": "北海道",
      "latitude": 43.06417,
      "longitude": 141.34694
    },
    {
      "code": "02",
      "name": "青森県",
      "region": "北海道・東北",
      "latitude": 40.82444,
      "longitude": 140.74
    },
    {
      "code": "03",
      "name": "岩手県",
      "region": "北海道・東北",
      "latitude": 39.70361,
      "longitude": 141.1525
    },
    {
      "code": "04",
      "name": "宮城県",
      "region": "北海道・東北",
      "latitude": 38.26889,
      "longitude": 140.87194
    },
    {
      "code": "05",
      "name": "秋田県",
      "region": "北海道・東北",
      "latitude": 39.71861,
      "longitude": 140.1025
    },
    {
      "code": "06",
      "name": "山形県",
      "region": "北海道・東北",
      "latitude": 38.24056,
      "longitude": 140.36333
    },
    {
      "code": "07",
      "name": "福島県",
      "region": "北海道・東北",
      "latitude": 37.75,
      "longitude": 140.46778
    },
    {
      "code": "08",
      "name": "茨城県",
      "region": "関東",
      "latitude": 36.34139,
      "longitude": 140.44667
    },
    {
      "code": "09",
      "name": "栃木県",
      "region": "関東",
      "latitude": 36.56583,
      "longitude": 139.88361
    },
    {
      "code": "10",
      "name": "群馬県",
      "region": "関東",
      "latitude": 36.39111,
      "longitude": 139.06083
    },
    {
      "code": "11",
      "name": "埼玉県",
      "region": "関東",
      "latitude": 35.85694,
      "longitude": 139.64889
    },
    {
      "code": "12",
      "name": "千葉県",
      "region": "関東",
      "latitude": 35.60472,
      "longitude": 140.12333
    },
    {
      "code": "13",
      "name": "東京都",
      "region": "関東",
      "latitude": 35.68944,
      "longitude": 139.69167
    },
    {
      "code": "14",
      "name": "神奈川県",
      "region": "関東",
      "latitude": 35.44778,
      "longitude": 139.6425
    },
    {
      "code": "15",
      "name": "新潟県",
      "region": "中部",
      "latitude": 37.90222,
      "longitude": 139.02361
    },
    {
      "code": "16",
      "name": "富山県",
      "region": "中部",
      "latitude": 36.69528,
      "longitude": 137.21139
    },
    {
      "code": "17",
      "name": "石川県",
      "region": "中部",
      "latitude": 36.59444,
      "longitude": 136.62556
    },
    {
      "code": "18",
      "name": "福井県",
      "region": "中部",
      "latitude": 36.06528,
      "longitude": 136.22194
    },
    {
      "code": "19",
      "name": "山梨県",
      "region": "中部",
      "latitude": 35.66389,
      "longitude": 138.56833
    },
    {
      "code": "20",
      "name": "長野県",
      "region": "中部",
      "latitude": 36.65139,
      "longitude": 138.18111
    },
    {
      "code": "21",
      "name": "岐阜県",
      "region": "中部",
      "latitude": 35.39111,
      "longitude": 136.72222
    },
    {
      "code": "22",
      "name": "静岡県",
      "region": "中部",
      "latitude": 34.97694,
      "longitude": 138.38306
    },
    {
      "code": "23",
      "name": "愛知県",
      "region": "中部",
      "latitude": 35.18028,
      "longitude": 136.90667
    },
    {
      "code": "24",
      "name": "三重県",
      "region": "近畿",
      "latitude": 34.73028,
      "longitude": 136.50861
    },
    {
      "code": "25",
      "name": "滋賀県",
      "region": "近畿",
      "latitude": 35.00444,
      "longitude": 135.86833
    },
    {
      "code": "26",
      "name": "京都府",
      "region": "近畿",
      "latitude": 35.02139,
      "longitude": 135.75556
    },
    {
      "code": "27",
      "name": "大阪府",
      "region": "近畿",
      "latitude": 34.68639,
      "longitude": 135.52
    },
    {
      "code": "28",
      "name": "兵庫県",
      "region": "近畿",
      "latitude": 34.69139,
      "longitude": 135.18306
    },
    {
      "code": "29",
      "name": "奈良県",
      "region": "近畿",
      "latitude": 34.68528,
      "longitude": 135.83278
    },
    {
      "code": "30",
      "name": "和歌山県",
      "region": "近畿",
      "latitude": 34.22611,
      "longitude": 135.1675
    },
    {
      "code": "31",
      "name": "鳥取県",
      "region": "中国",
      "latitude": 35.50361,
      "longitude": 134.23833
    },
    {
      "code": "32",
      "name": "島根県",
      "region": "中国",
      "latitude": 35.47222,
      "longitude": 133.05056
    },
    {
      "code": "33",
      "name": "岡山県",
      "region": "中国",
      "latitude": 34.66167,
      "longitude": 133.935
    },
    {
      "code": "34",
      "name": "広島県",
      "region": "中国",
      "latitude": 34.39639,
      "longitude": 132.45944
    },
    {
      "code": "35",
      "name": "山口県",
      "region": "中国",
      "latitude": 34.18583,
      "longitude": 131.47139
    },
    {
      "code": "36",
      "name": "徳島県",
      "region": "四国",
      "latitude": 34.07028,
      "longitude": 134.55472
    },
    {
      "code": "37",
      "name": "香川県",
      "region": "四国",
      "latitude": 34.34028,
      "longitude": 134.04333
    },
    {
      "code": "38",
      "name": "愛媛県",
      "region": "四国",
      "latitude": 33.84167,
      "longitude": 132.76611
    },
    {
      "code": "39",
      "name": "高知県",
      "region": "四国",
      "latitude": 33.55972,
      "longitude": 133.53111
    },
    {
      "code": "40",
      "name": "福岡県",
      "region": "九州・沖縄",
      "latitude": 33.60639,
      "longitude": 130.41889
    },
    {
      "code": "41",
      "name": "佐賀県",
      "region": "九州・沖縄",
      "latitude": 33.24944,
      "longitude": 130.29889
    },
    {
      "code": "42",
      "name": "長崎県",
      "region": "九州・沖縄",
      "latitude": 32.74472,
      "longitude": 129.87361
    },
    {
      "code": "43",
      "name": "熊本県",
      "region": "九州・沖縄",
      "latitude": 32.78972,
      "longitude": 130.74167
    },
    {
      "code": "44",
      "name": "大分県",
      "region": "九州・沖縄",
      "latitude": 33.23806,
      "longitude": 131.6125
    },
    {
      "code": "45",
      "name": "宮崎県",
      "region": "九州・沖縄",
      "latitude": 31.91111,
      "longitude": 131.42389
    },
    {
      "code": "46",
      "name": "鹿児島県",
      "region": "九州・沖縄",
      "latitude": 31.56028,
      "longitude": 130.55806
    },
    {
      "code": "47",
      "name": "沖縄県",
      "region": "九州・沖縄",
      "latitude": 26.2125,
      "longitude": 127.68111
    }
  ]
}